{
  "turistik": [
    {
      "id": "1",
      "title": "Giresun Kalesi",
      "description": "Şehre hakim tepede yer alan tarihi kale, muhteşem manzarası ile ünlüdür.",
      "image": "/turist/giresun-kalesi.jpeg",
      "location": "Merkez",
      "district": "Merkez",
      "geoLocation": { "lat": 40.912977, "lng": 38.389834 },
      "rating": 4.5,
      "features": ["Tarihi Yapı", "Manzara", "Yürüyüş"]
    },
    {
      "id": "2",
      "title": "Giresun Adası",
      "description": "Doğu Karadeniz'in tek adası, antik kalıntıları ve doğal güzelliği ile öne çıkar.",
      "image": "/turist/giresun-adasi.jpg",
      "location": "Merkez sahil",
      "district": "Merkez",
      "geoLocation": { "lat": 40.925642, "lng": 38.385867 },
      "rating": 4.7,
      "features": ["Ada", "Tekne Turu", "Tarihi"]
    },
    {
      "id": "3",
      "title": "Kuzalan Şelalesi",
      "description": "Dereli'nin en önemli doğal güzelliklerinden, muhteşem şelale ve yürüyüş parkurları.",
      "image": "/turist/kuzalan.jpg",
      "location": "Dereli",
      "district": "Dereli",
      "geoLocation": { "lat": 40.693056, "lng": 38.455833 },
      "rating": 4.8,
      "features": ["Şelale", "Doğa", "Yürüyüş"]
    },
    {
      "id": "4",
      "title": "Şebinkarahisar Kalesi",
      "description": "Tarihi kale ve eşsiz manzarasıyla ünlü turistik mekan.",
      "image": "/turist/sbin-kalesi.jpeg",
      "location": "Şebinkarahisar",
      "district": "Şebinkarahisar",
      "geoLocation": { "lat": 40.286389, "lng": 38.422778 },
      "rating": 4.6,
      "features": ["Tarihi Kale", "Manzara", "Kültürel Miras"]
    },
    {
      "id": "5",
      "title": "Tirebolu Kalesi",
      "description": "Deniz kıyısında tarihi kale ve muhteşem manzara.",
      "image": "/turist/tirebolu-kalesi.png",
      "location": "Tirebolu",
      "district": "Tirebolu",
      "geoLocation": { "lat": 41.005833, "lng": 38.813611 },
      "rating": 4.5,
      "features": ["Tarihi Kale", "Deniz", "Manzara"]
    },
    {
      "id": "6",
      "title": "Bulancak Sahili",
      "description": "Uzun sahil şeridi ve yürüyüş alanları.",
      "image": "/turist/bulancak-sahili.jpg",
      "location": "Bulancak",
      "district": "Bulancak",
      "geoLocation": { "lat": 40.938333, "lng": 38.232778 },
      "rating": 4.3,
      "features": ["Sahil", "Yürüyüş", "Deniz"]
    },
    {
      "id": "7",
      "title": "Yaylaköy Şelalesi",
      "description": "Doğal güzelliği ile ünlü şelale ve mesire alanı.",
      "image": "/turist/yayla-selalesi.jpg",
      "location": "Espiye",
      "district": "Espiye",
      "geoLocation": { "lat": 40.792778, "lng": 38.702778 },
      "rating": 4.4,
      "features": ["Şelale", "Piknik", "Doğa"]
    }
  ]
}